[
  {
    "id": 1,
    "country_id": 1,
    "name_en": "Lima",
    "name_he": "לימה",
    "summary_he": "בירת פרו, עיר של ceviche מעולה, שכונות קולוניאליות וחופי האוקיינוס השקט. שער הכניסה לפרו ומרכז גסטרונומי עולמי.",
    "latitude": -12.046,
    "longitude": -77.043
  },
  {
    "id": 2,
    "country_id": 2,
    "name_en": "Buenos Aires",
    "name_he": "בואנוס איירס",
    "summary_he": "בירתה התוססת של ארגנטינה, המכונה \"פריז של דרום אמריקה\" בזכות האדריכלות האירופאית, הטנגו והתרבות העשירה.",
    "latitude": -34.604,
    "longitude": -58.382
  },
  {
    "id": 3,
    "country_id": 3,
    "name_en": "Rio de Janeiro",
    "name_he": "ריו דה ז'ניירו",
    "summary_he": "עיר החופים והקרנבל המפורסם בברזיל. ביתם של פסל הישו, גבעת הסוכר וחופי קופקבאנה ואיפאנמה.",
    "latitude": -22.907,
    "longitude": -43.173
  },
  {
    "id": 4,
    "country_id": 1,
    "name_en": "Cusco",
    "name_he": "קוסקו",
    "summary_he": "עיר עתיקה בלב הרי האנדים, שהייתה בירת האימפריה האינקאית. שער הכניסה למאצ'ו פיצ'ו ומרכז תרבותי עשיר.",
    "latitude": -13.532,
    "longitude": -71.967
  },
  {
    "id": 5,
    "country_id": 4,
    "name_en": "Cali",
    "name_he": "קאלי",
    "summary_he": "עיר הסלסה והקפה בדרום קולומביה. לילות תוססים, מוזיקה חיה ושוקי אמנות.",
    "latitude": 3.451,
    "longitude": -76.532
  },
  {
    "id": 6,
    "country_id": 4,
    "name_en": "Bogotá",
    "name_he": "בוגוטה",
    "summary_he": "בירת קולומביה בגובה 2,640 מטר — מוזיאונים, Ciclovía וקולינריה מגוונת.",
    "latitude": 4.711,
    "longitude": -74.072
  }
]
